{
  "day1": [
    {
      "name": "서울시립 북서울미술관",
      "type": "문화시설",
      "lat": 37.6397,
      "lng": 127.0265,
      "description": "'투명하고 향기 나는 천사의 날개 빛깔처럼' 전시를 관람합니다.",
      "departTime": "10:00",
      "arriveTime": "12:00"
    },
    {
      "name": "스시혼",
      "type": "식당",
      "lat": 37.646282,
      "lng": 127.033989,
      "description": "신선한 활어로 만든 전통 일본식 스시를 제공하는 인기 스시집에서 점심 식사를 합니다.",
      "departTime": "12:15",
      "arriveTime": "13:30"
    },
    {
      "name": "북서울 꿈의 숲",
      "type": "관광지",
      "lat": 37.620797,
      "lng": 127.042099,
      "description": "북서울 꿈의 숲은 넓은 녹지와 자연 경관을 즐길 수 있는 공원으로, 산책과 휴식을 취하기 좋은 장소입니다.",
      "departTime": "14:00",
      "arriveTime": "15:30"
    },
    {
      "name": "페넬로페",
      "type": "식당",
      "lat": 37.637952,
      "lng": 127.023198,
      "description": "야외 테라스에서 피자를 즐길 수 있는 레스토랑에서 휴식을 겸한 오후 간식을 즐깁니다.",
      "departTime": "16:00",
      "arriveTime": "17:00"
    },
    {
      "name": "서울시립 북서울미술관",
      "type": "문화시설",
      "lat": 37.6397,
      "lng": 127.0265,
      "description": "미술관으로 돌아와 남은 전시와 작품들을 감상합니다.",
      "departTime": "17:15",
      "arriveTime": "18:30"
    },
    {
      "name": "수유손칼국수",
      "type": "식당",
      "lat": 37.644013,
      "lng": 127.028373,
      "description": "저녁 식사를 위해 전통 손칼국수를 즐길 수 있는 인기 맛집입니다.",
      "departTime": "18:45",
      "arriveTime": "20:00"
    }
  ]
}
