{
  "day1": [
    {
      "name": "경포대 해변",
      "lat": 37.798824,
      "lng": 128.948719,
      "description": "강릉을 대표하는 해변으로, 고운 백사장과 맑은 바다를 자랑합니다. 파도 소리를 들으며 여유롭게 산책을 즐길 수 있습니다.",
      "departTime": "10:00",
      "arriveTime": "13:00",
      "type": "관광지"
    },
    {
      "name": "초당 순두부마을",
      "lat": 37.782128,
      "lng": 128.911025,
      "description": "강릉의 유명한 순두부 마을로, 다양한 순두부 요리를 맛볼 수 있는 곳입니다.",
      "departTime": "13:00",
      "arriveTime": "14:00",
      "type": "식당"
    },
    {
      "name": "경포호수",
      "lat": 37.796185,
      "lng": 128.901474,
      "description": "해변과 연결된 아름다운 호수로, 주변을 둘러싼 산책로를 걸으며 자연을 느낄 수 있습니다.",
      "departTime": "14:00",
      "arriveTime": "15:30",
      "type": "관광지"
    },
    {
      "name": "안목 해변 커피 거리",
      "lat": 37.751633,
      "lng": 128.912161,
      "description": "강릉의 유명한 커피 거리로, 해변을 바라보며 다양한 커피를 즐길 수 있는 카페들이 밀집해 있습니다.",
      "departTime": "16:00",
      "arriveTime": "18:00",
      "type": "카페"
    },
    {
      "name": "강릉 중앙시장",
      "lat": 37.755349,
      "lng": 128.896174,
      "description": "강릉의 전통시장으로, 다양한 먹거리를 즐길 수 있는 장소입니다.",
      "departTime": "18:00",
      "arriveTime": "19:30",
      "type": "쇼핑"
    },
    {
      "name": "경포 씨마크 호텔",
      "lat": 37.794460,
      "lng": 128.906648,
      "description": "경포대 해변에 위치한 고급 리조트로, 바다 전망과 함께 편안한 휴식을 취할 수 있는 곳입니다.",
      "checkInTime": "19:30",
      "checkOutTime": "10:00",
      "type": "숙박"
    }
  ],
  "day2": [
    {
      "name": "정동진 해변",
      "lat": 37.689923,
      "lng": 129.033903,
      "description": "해돋이 명소로 유명한 해변으로, 파도 소리를 들으며 아름다운 일출을 감상할 수 있습니다.",
      "departTime": "05:00",
      "arriveTime": "07:00",
      "type": "관광지"
    },
    {
      "name": "정동진 모래시계 공원",
      "lat": 37.689135,
      "lng": 129.032746,
      "description": "정동진의 상징적인 모래시계 공원에서 시간의 흐름을 느끼며 산책할 수 있는 곳입니다.",
      "departTime": "07:30",
      "arriveTime": "09:00",
      "type": "관광지"
    },
    {
      "name": "정동진 레일바이크",
      "lat": 37.690198,
      "lng": 129.034859,
      "description": "해안선을 따라 레일바이크를 타며 파도 소리와 함께 바다를 즐길 수 있는 이색 체험입니다.",
      "departTime": "09:30",
      "arriveTime": "11:30",
      "type": "관광지"
    },
    {
      "name": "강문 해변 횟집",
      "lat": 37.785430,
      "lng": 128.935917,
      "description": "강릉의 신선한 해산물을 맛볼 수 있는 횟집으로, 다양한 회와 해산물 요리를 즐길 수 있습니다.",
      "departTime": "12:00",
      "arriveTime": "13:00",
      "type": "식당"
    },
    {
      "name": "주문진 해변",
      "lat": 37.900429,
      "lng": 128.823542,
      "description": "한적한 분위기의 해변으로, 파도와 함께 여유로운 시간을 보내기 좋은 장소입니다.",
      "departTime": "13:00",
      "arriveTime": "15:00",
      "type": "관광지"
    },
    {
      "name": "강릉커피박물관 (커피 커퍼)",
      "lat": 37.893407,
      "lng": 128.822702,
      "description": "커피의 역사와 문화를 배울 수 있는 곳으로, 다양한 커피를 맛볼 수 있는 카페도 함께 운영되고 있습니다.",
      "departTime": "15:00",
      "arriveTime": "16:00",
      "type": "카페"
    },
    {
      "name": "주문진 리조트",
      "lat": 37.895870,
      "lng": 128.819594,
      "description": "주문진 해변 근처에 위치한 리조트로, 바다를 바라보며 휴식을 취할 수 있는 곳입니다.",
      "checkInTime": "16:30",
      "checkOutTime": "10:00",
      "type": "숙박"
    }
  ],
  "day3": [
    {
      "name": "하슬라 아트 월드",
      "lat": 37.637401,
      "lng": 129.025455,
      "description": "강릉의 예술 공원으로, 바다를 배경으로 다양한 예술 작품을 감상할 수 있는 곳입니다.",
      "departTime": "10:00",
      "arriveTime": "12:00",
      "type": "관광지"
    },
    {
      "name": "속초 명태회센터",
      "lat": 38.204678,
      "lng": 128.591755,
      "description": "속초의 유명한 명태회 맛집들이 모여 있는 곳으로, 다양한 명태 요리를 즐길 수 있습니다.",
      "departTime": "12:30",
      "arriveTime": "13:30",
      "type": "식당"
    },
    {
      "name": "속초 영금정",
      "lat": 38.208110,
      "lng": 128.592788,
      "description": "속초의 대표적인 명소로, 해안 절벽과 바다의 조화로운 풍경을 감상할 수 있습니다.",
      "departTime": "13:30",
      "arriveTime": "15:30",
      "type": "관광지"
    },
    {
      "name": "대포항",
      "lat": 38.191328,
      "lng": 128.605940,
      "description": "속초의 대표적인 항구로, 신선한 해산물을 맛볼 수 있는 장소입니다.",
      "departTime": "16:00",
      "arriveTime": "18:00",
      "type": "식당"
    },
    {
      "name": "설악산 온천 휴양촌",
      "lat": 38.148865,
      "lng": 128.588531,
      "description": "설악산 근처에 위치한 온천으로, 여행의 피로를 풀며 휴식을 취할 수 있는 곳입니다.",
      "departTime": "18:30",
      "arriveTime": "20:00",
      "type": "관광지"
    },
    {
      "name": "속초 호텔 마레몬스",
      "lat": 38.176231,
      "lng": 128.606927,
      "description": "속초의 해변에 위치한 호텔로, 바다 전망을 감상하며 편안한 휴식을 취할 수 있는 곳입니다.",
      "checkInTime": "20:00",
      "checkOutTime": "10:00",
      "type": "숙박"
    }
  ]
}
