{
  "day1": [
    {
      "name": "청령포",
      "type": "관광지",
      "lat": 37.193262,
      "lng": 128.456423,
      "description": "단종이 유배되어 지내던 유적지로, 강원도 영월의 대표적인 문화유산입니다. 배를 타고 들어가야 하는 섬으로 아름다운 자연 경관과 역사적인 의미를 함께 느낄 수 있습니다.",
      "departTime": "09:00",
      "arriveTime": "11:00"
    },
    {
      "name": "동강 생태공원",
      "type": "관광지",
      "lat": 37.221134,
      "lng": 128.461009,
      "description": "영월의 맑은 동강을 따라 조성된 생태공원으로, 다양한 야생 동식물을 관찰할 수 있는 곳입니다. 트레킹 코스도 잘 마련되어 있어 자연 속에서 산책을 즐기기에 좋습니다.",
      "departTime": "11:30",
      "arriveTime": "13:00"
    },
    {
      "name": "강원 감자바우집",
      "type": "식당",
      "lat": 37.184972,
      "lng": 128.464118,
      "description": "영월의 지역 특산물인 감자를 활용한 다양한 요리를 맛볼 수 있는 현지 맛집입니다. 감자전, 감자옹심이 등 강원도만의 전통 음식을 즐길 수 있습니다.",
      "departTime": "13:15",
      "arriveTime": "14:30"
    },
    {
      "name": "영월 별마로 천문대",
      "type": "관광지",
      "lat": 37.227084,
      "lng": 128.458109,
      "description": "국내 최대의 천문대로, 별자리 관측 및 다양한 천문 프로그램을 체험할 수 있는 곳입니다. 밤하늘을 보며 특별한 추억을 만들 수 있습니다.",
      "departTime": "15:00",
      "arriveTime": "17:00"
    },
    {
      "name": "영월 한옥마을",
      "type": "숙소",
      "lat": 37.185964,
      "lng": 128.460781,
      "description": "전통 한옥에서 숙박을 체험할 수 있는 영월 한옥마을입니다. 조용하고 고즈넉한 분위기에서 하루를 마무리하기에 좋은 곳입니다.",
      "departTime": "18:00",
      "arriveTime": "익일 09:00"
    }
  ],
  "day2": [
    {
      "name": "장릉",
      "type": "관광지",
      "lat": 37.178318,
      "lng": 128.463268,
      "description": "조선 제6대 단종의 무덤으로, 유네스코 세계문화유산으로 지정된 유적지입니다. 단종의 역사적 이야기를 접하며 산책하기 좋은 곳입니다.",
      "departTime": "09:30",
      "arriveTime": "11:00"
    },
    {
      "name": "고씨동굴",
      "type": "관광지",
      "lat": 37.228500,
      "lng": 128.490285,
      "description": "천연기념물로 지정된 석회암 동굴로, 동굴 탐험을 즐길 수 있는 곳입니다. 다양한 형상의 종유석과 석순이 신비로운 분위기를 자아냅니다.",
      "departTime": "11:30",
      "arriveTime": "13:00"
    },
    {
      "name": "송어찜마을",
      "type": "식당",
      "lat": 37.202541,
      "lng": 128.479307,
      "description": "영월의 유명한 송어찜 요리를 맛볼 수 있는 현지 식당입니다. 신선한 송어를 사용한 다양한 요리를 즐길 수 있습니다.",
      "departTime": "13:30",
      "arriveTime": "15:00"
    },
    {
      "name": "김삿갓 유적지",
      "type": "관광지",
      "lat": 37.238947,
      "lng": 128.483658,
      "description": "조선 후기의 유명한 시인 김삿갓의 유적지로, 그의 삶과 문학 세계를 엿볼 수 있는 곳입니다.",
      "departTime": "15:30",
      "arriveTime": "17:00"
    },
    {
      "name": "영월역",
      "type": "교통",
      "lat": 37.184722,
      "lng": 128.463889,
      "description": "영월 여행의 마무리를 하고 기차나 버스를 이용하여 다음 목적지로 이동합니다.",
      "departTime": "17:30",
      "arriveTime": "종료"
    }
  ]
}
